[
  {
    "name": "Salt Lake City",
    "state": "Utah",
    "latitude": 40.7608,
    "longitude": -111.8910
  },
  {
    "name": "Lehi",
    "state": "Utah",
    "latitude": 40.3916,
    "longitude": -111.8508
  },
  {
    "name": "Park City",
    "state": "Utah",
    "latitude": 40.6461,
    "longitude": -111.4980
  },
  {
    "name": "Provo",
    "state": "Utah",
    "latitude": 40.2338,
    "longitude": -111.6585
  },
  {
    "name": "Holladay",
    "state": "Utah",
    "latitude": 40.6688,
    "longitude": -111.8247
  },
  {
    "name": "St. George",
    "state": "Utah",
    "latitude": 37.0965,
    "longitude": -113.5684
  },
  {
    "name": "Solana Beach",
    "state": "California",
    "latitude": 32.9912,
    "longitude": -117.2711
  },
  {
    "name": "Leucadia",
    "state": "California",
    "latitude": 33.0667,
    "longitude": -117.3000
  },
  {
    "name": "Carlsbad",
    "state": "California",
    "latitude": 33.1581,
    "longitude": -117.3506
  },
  {
    "name": "Rancho Bernardo",
    "state": "California",
    "latitude": 33.0203,
    "longitude": -117.0731
  },
  {
    "name": "Fremont",
    "state": "California",
    "latitude": 37.5483,
    "longitude": -121.9886
  },
  {
    "name": "Boulder",
    "state": "Colorado",
    "latitude": 40.01499,
    "longitude": -105.27055
  },
  {
    "name": "Littleton",
    "state": "Colorado",
    "latitude": 39.6133,
    "longitude": -105.0166
  },
  {
    "name": "Fort Collins",
    "state": "Colorado",
    "latitude": 40.5853,
    "longitude": -105.0844
  },
  {
    "name": "Gilbert",
    "state": "Arizona",
    "latitude": 33.3528,
    "longitude": -111.7890
  },
  {
    "name": "Biltmore",
    "state": "Arizona",
    "latitude": 33.5106,
    "longitude": -112.0300
  },
  {
    "name": "Meridian",
    "state": "Idaho",
    "latitude": 43.6121,
    "longitude": -116.3915
  },
  {
    "name": "Boise",
    "state": "Idaho",
    "latitude": 43.6150,
    "longitude": -116.2023
  },
  {
    "name": "Las Vegas",
    "state": "Nevada",
    "latitude": 36.1699,
    "longitude": -115.1398
  },
  {
    "name": "Reno",
    "state": "Nevada",
    "latitude": 39.5296,
    "longitude": -119.8138
  },
  {
    "name": "Portland",
    "state": "Oregon",
    "latitude": 45.5152,
    "longitude": -122.6784
  },
  {
    "name": "Bend",
    "state": "Oregon",
    "latitude": 44.0582,
    "longitude": -121.3153
  },
  {
    "name": "Bozeman",
    "state": "Montana",
    "latitude": 45.6770,
    "longitude": -111.0429
  },
  {
    "name": "Plano",
    "state": "Texas",
    "latitude": 33.0198,
    "longitude": -96.6989
  },
  {
    "name": "Preston Hollow",
    "state": "Texas",
    "latitude": 32.8810,
    "longitude": -96.8050
  }
]