[
  {
    "name": "Salt Lake City, UT",
    "latitude": 40.7608,
    "longitude": -111.8910
  },
  {
    "name": "Lehi, UT",
    "latitude": 40.3916,
    "longitude": -111.8508
  },
  {
    "name": "Boulder, CO",
    "latitude": 40.0150,
    "longitude": -105.2705
  },
  {
    "name": "Park City, UT",
    "latitude": 40.6461,
    "longitude": -111.4980
  },
  {
    "name": "Solana Beach, CA",
    "latitude": 32.9912,
    "longitude": -117.2711
  },
  {
    "name": "Meridian, ID",
    "latitude": 43.6121,
    "longitude": -116.3915
  },
  {
    "name": "Leucadia, CA",
    "latitude": 33.0656,
    "longitude": -117.3020
  },
  {
    "name": "Carlsbad, CA",
    "latitude": 33.1581,
    "longitude": -117.3506
  }
]