[
  {
    "name": "Salt Lake City, UT",
    "latitude": 40.7608,
    "longitude": -111.8910
  },
  {
    "name": "Lehi, UT",
    "latitude": 40.3916,
    "longitude": -111.8508
  },
  {
    "name": "Boulder, CO",
    "latitude": 40.0150,
    "longitude": -105.2705
  },
  {
    "name": "Park City, UT",
    "latitude": 40.6461,
    "longitude": -111.4980
  },
  {
    "name": "Solana Beach, CA",
    "latitude": 32.9912,
    "longitude": -117.2711
  },
  {
    "name": "Meridian, ID",
    "latitude": 43.6121,
    "longitude": -116.3915
  },
  {
    "name": "Leucadia, CA",
    "latitude": 33.0656,
    "longitude": -117.3020
  },
  {
    "name": "Carlsbad, CA",
    "latitude": 33.1581,
    "longitude": -117.3506
  },
  {
    "name": "Provo, UT",
    "latitude": 40.2338,
    "longitude": -111.6585
  },
  {
    "name": "Portland, OR",
    "latitude": 45.5152,
    "longitude": -122.6784
  },
  {
    "name": "Gilbert, AZ",
    "latitude": 33.3528,
    "longitude": -111.7890
  },
  {
    "name": "Littleton, CO",
    "latitude": 39.6133,
    "longitude": -105.0166
  },
  {
    "name": "St. George, UT",
    "latitude": 37.0965,
    "longitude": -113.5684
  },
  {
    "name": "Biltmore, Phoenix, AZ",
    "latitude": 33.5100,
    "longitude": -112.0300
  },
  {
    "name": "Las Vegas, NV",
    "latitude": 36.1699,
    "longitude": -115.1398
  },
  {
    "name": "Rancho Bernardo, CA",
    "latitude": 33.0239,
    "longitude": -117.0723
  },
  {
    "name": "Fort Collins, CO",
    "latitude": 40.5853,
    "longitude": -105.0844
  },
  {
    "name": "Holladay, UT",
    "latitude": 40.6688,
    "longitude": -111.8247
  },
  {
    "name": "Bozeman, MT",
    "latitude": 45.6770,
    "longitude": -111.0429
  },
  {
    "name": "Bend, OR",
    "latitude": 44.0582,
    "longitude": -121.3153
  },
  {
    "name": "Preston Hollow, Dallas, TX",
    "latitude": 32.8790,
    "longitude": -96.8050
  },
  {
    "name": "Reno, NV",
    "latitude": 39.5296,
    "longitude": -119.8138
  },
  {
    "name": "Plano, TX",
    "latitude": 33.0198,
    "longitude": -96.6989
  },
  {
    "name": "Fremont, CA",
    "latitude": 37.5483,
    "longitude": -121.9886
  },
  {
    "name": "Boise, ID",
    "latitude": 43.6150,
    "longitude": -116.2023
  }
]